[{"importProvinceNum": 3, "exportProvinceNum": 3, "fullFileName": "跨区域能源消费联动.xlsx", "fileName": "跨区域能源消费联动", "unit": "PJ", "Beijing": {"chineseName": "\u5317\u4eac\u5e02", "name": "Beijing", "chineseAbbrName": "\u5317\u4eac", "latitude": "40.2539", "longitude": "116.4551", "exportSum": 6.314917603530778e+18, "importSum": 6.996778421428336e+18, "exportData": [{"name": "Hebei", "chineseAbbrName": "\u6cb3\u5317", "latitude": "37.9688", "longitude": "115.4004", "sort": 1, "value": 9.66224289693832e+17, "sum": 8.59124257844307e+18}, {"name": "Shandong", "chineseAbbrName": "\u5c71\u4e1c", "latitude": "36.4307", "longitude": "118.7402", "sort": 2, "value": 8.78745170144378e+17, "sum": 8.686112463312101e+18}, {"name": "Jiangsu", "chineseAbbrName": "\u6c5f\u82cf", "latitude": "32.915", "longitude": "120.0586", "sort": 3, "value": 6.17553777224779e+17, "sum": 1.7460346858410154e+19}], "importData": [{"name": "Inner mongolia", "chineseAbbrName": "\u5185\u8499\u53e4", "latitude": "44.3408", "longitude": "117.5977", "sort": 1, "value": 2.12033048703315e+18, "sum": 2.2588501943311213e+19}, {"name": "Shanxi", "chineseAbbrName": "\u5c71\u897f", "latitude": "37.6611", "longitude": "112.4121", "sort": 2, "value": 1.42680912905139e+18, "sum": 1.6468900240065829e+19}, {"name": "Hebei", "chineseAbbrName": "\u6cb3\u5317", "latitude": "37.9688", "longitude": "115.4004", "sort": 3, "value": 5.75110208429258e+17, "sum": 5.939963162268555e+18}]}, "Tianjin": {"chineseName": "\u5929\u6d25\u5e02", "name": "Tianjin", "chineseAbbrName": "\u5929\u6d25", "latitude": "39.4189", "longitude": "117.4219", "exportSum": 2.1006263167494653e+18, "importSum": 2.4106711633256817e+18, "exportData": [{"name": "Beijing", "chineseAbbrName": "\u5317\u4eac", "latitude": "40.2539", "longitude": "116.4551", "sort": 1, "value": 4.38789122353881e+17, "sum": 6.996778421428336e+18}, {"name": "Shandong", "chineseAbbrName": "\u5c71\u4e1c", "latitude": "36.4307", "longitude": "118.7402", "sort": 2, "value": 3.6563063929664e+17, "sum": 8.686112463312101e+18}, {"name": "Jiangsu", "chineseAbbrName": "\u6c5f\u82cf", "latitude": "32.915", "longitude": "120.0586", "sort": 3, "value": 1.75278127790616e+17, "sum": 1.7460346858410154e+19}], "importData": [{"name": "Beijing", "chineseAbbrName": "\u5317\u4eac", "latitude": "40.2539", "longitude": "116.4551", "sort": 1, "value": 5.82131333250733e+17, "sum": 6.314917603530778e+18}, {"name": "Jiangsu", "chineseAbbrName": "\u6c5f\u82cf", "latitude": "32.915", "longitude": "120.0586", "sort": 2, "value": 3.34862370874253e+17, "sum": 8.569346972693992e+18}, {"name": "Hebei", "chineseAbbrName": "\u6cb3\u5317", "latitude": "37.9688", "longitude": "115.4004", "sort": 3, "value": 2.84594674377757e+17, "sum": 5.939963162268555e+18}]}, "Hebei": {"chineseName": "\u6cb3\u5317\u7701", "name": "Hebei", "chineseAbbrName": "\u6cb3\u5317", "latitude": "37.9688", "longitude": "115.4004", "exportSum": 5.939963162268555e+18, "importSum": 8.59124257844307e+18, "exportData": [{"name": "Jiangsu", "chineseAbbrName": "\u6c5f\u82cf", "latitude": "32.915", "longitude": "120.0586", "sort": 1, "value": 7.75255411051571e+17, "sum": 1.7460346858410154e+19}, {"name": "Beijing", "chineseAbbrName": "\u5317\u4eac", "latitude": "40.2539", "longitude": "116.4551", "sort": 2, "value": 5.75110208429258e+17, "sum": 6.996778421428336e+18}, {"name": "Henan", "chineseAbbrName": "\u6cb3\u5357", "latitude": "33.8818", "longitude": "113.4668", "sort": 3, "value": 5.23960381033424e+17, "sum": 6.90722297613652e+18}], "importData": [{"name": "Shanxi", "chineseAbbrName": "\u5c71\u897f", "latitude": "37.6611", "longitude": "112.4121", "sort": 1, "value": 2.20294267306373e+18, "sum": 1.6468900240065829e+19}, {"name": "Inner mongolia", "chineseAbbrName": "\u5185\u8499\u53e4", "latitude": "44.3408", "longitude": "117.5977", "sort": 2, "value": 1.97081850238897e+18, "sum": 2.2588501943311213e+19}, {"name": "Beijing", "chineseAbbrName": "\u5317\u4eac", "latitude": "40.2539", "longitude": "116.4551", "sort": 3, "value": 9.66224289693832e+17, "sum": 6.314917603530778e+18}]}, "Shanxi": {"chineseName": "\u5c71\u897f\u7701", "name": "Shanxi", "chineseAbbrName": "\u5c71\u897f", "latitude": "37.6611", "longitude": "112.4121", "exportSum": 1.6468900240065829e+19, "importSum": 1.8439169186422825e+18, "exportData": [{"name": "Jiangsu", "chineseAbbrName": "\u6c5f\u82cf", "latitude": "32.915", "longitude": "120.0586", "sort": 1, "value": 2.44378218299554e+18, "sum": 1.7460346858410154e+19}, {"name": "Hebei", "chineseAbbrName": "\u6cb3\u5317", "latitude": "37.9688", "longitude": "115.4004", "sort": 2, "value": 2.20294267306373e+18, "sum": 8.59124257844307e+18}, {"name": "Shandong", "chineseAbbrName": "\u5c71\u4e1c", "latitude": "36.4307", "longitude": "118.7402", "sort": 3, "value": 1.54411369331609e+18, "sum": 8.686112463312101e+18}], "importData": [{"name": "Hebei", "chineseAbbrName": "\u6cb3\u5317", "latitude": "37.9688", "longitude": "115.4004", "sort": 1, "value": 3.34039852521379e+17, "sum": 5.939963162268555e+18}, {"name": "Inner mongolia", "chineseAbbrName": "\u5185\u8499\u53e4", "latitude": "44.3408", "longitude": "117.5977", "sort": 2, "value": 2.46954920477417e+17, "sum": 2.2588501943311213e+19}, {"name": "Jiangsu", "chineseAbbrName": "\u6c5f\u82cf", "latitude": "32.915", "longitude": "120.0586", "sort": 3, "value": 2.18353934088274e+17, "sum": 8.569346972693992e+18}]}, "Inner mongolia": {"chineseName": "\u5185\u8499\u53e4\u81ea\u6cbb\u533a", "name": "Inner mongolia", "chineseAbbrName": "\u5185\u8499\u53e4", "latitude": "44.3408", "longitude": "117.5977", "exportSum": 2.2588501943311213e+19, "importSum": 3.1383836900822886e+18, "exportData": [{"name": "Jiangsu", "chineseAbbrName": "\u6c5f\u82cf", "latitude": "32.915", "longitude": "120.0586", "sort": 1, "value": 3.15764980916412e+18, "sum": 1.7460346858410154e+19}, {"name": "Beijing", "chineseAbbrName": "\u5317\u4eac", "latitude": "40.2539", "longitude": "116.4551", "sort": 2, "value": 2.12033048703315e+18, "sum": 6.996778421428336e+18}, {"name": "Zhejiang", "chineseAbbrName": "\u6d59\u6c5f", "latitude": "29.0918", "longitude": "120.498", "sort": 3, "value": 2.03772852787707e+18, "sum": 1.0198952350150457e+19}], "importData": [{"name": "Shanxi", "chineseAbbrName": "\u5c71\u897f", "latitude": "37.6611", "longitude": "112.4121", "sort": 1, "value": 4.64740680146558e+17, "sum": 1.6468900240065829e+19}, {"name": "Jiangsu", "chineseAbbrName": "\u6c5f\u82cf", "latitude": "32.915", "longitude": "120.0586", "sort": 2, "value": 4.13212289084137e+17, "sum": 8.569346972693992e+18}, {"name": "Hebei", "chineseAbbrName": "\u6cb3\u5317", "latitude": "37.9688", "longitude": "115.4004", "sort": 3, "value": 2.74185292792368e+17, "sum": 5.939963162268555e+18}]}, "Liaoning": {"chineseName": "\u8fbd\u5b81\u7701", "name": "Liaoning", "chineseAbbrName": "\u8fbd\u5b81", "latitude": "41.0889", "longitude": "122.3438", "exportSum": 3.822277890456998e+18, "importSum": 5.550879667378063e+18, "exportData": [{"name": "Heilongjiang", "chineseAbbrName": "\u9ed1\u9f99\u6c5f", "latitude": "48.5156", "longitude": "128.1445", "sort": 1, "value": 4.33403543587086e+17, "sum": 2.775037332761346e+18}, {"name": "Jiangsu", "chineseAbbrName": "\u6c5f\u82cf", "latitude": "32.915", "longitude": "120.0586", "sort": 2, "value": 4.160090750235e+17, "sum": 1.7460346858410154e+19}, {"name": "Jilin", "chineseAbbrName": "\u5409\u6797", "latitude": "43.5938", "longitude": "126.4746", "sort": 3, "value": 3.51527854794425e+17, "sum": 3.026584387402904e+18}], "importData": [{"name": "Inner mongolia", "chineseAbbrName": "\u5185\u8499\u53e4", "latitude": "44.3408", "longitude": "117.5977", "sort": 1, "value": 1.14080734344783e+18, "sum": 2.2588501943311213e+19}, {"name": "Heilongjiang", "chineseAbbrName": "\u9ed1\u9f99\u6c5f", "latitude": "48.5156", "longitude": "128.1445", "sort": 2, "value": 6.35145198750659e+17, "sum": 3.3706808621209426e+18}, {"name": "Jiangsu", "chineseAbbrName": "\u6c5f\u82cf", "latitude": "32.915", "longitude": "120.0586", "sort": 3, "value": 4.27804779467022e+17, "sum": 8.569346972693992e+18}]}, "Jilin": {"chineseName": "\u5409\u6797\u7701", "name": "Jilin", "chineseAbbrName": "\u5409\u6797", "latitude": "43.5938", "longitude": "126.4746", "exportSum": 1.7636679868382292e+18, "importSum": 3.026584387402904e+18, "exportData": [{"name": "Heilongjiang", "chineseAbbrName": "\u9ed1\u9f99\u6c5f", "latitude": "48.5156", "longitude": "128.1445", "sort": 1, "value": 3.57587186245214e+17, "sum": 2.775037332761346e+18}, {"name": "Liaoning", "chineseAbbrName": "\u8fbd\u5b81", "latitude": "41.0889", "longitude": "122.3438", "sort": 2, "value": 2.84533385089389e+17, "sum": 5.550879667378063e+18}, {"name": "Inner mongolia", "chineseAbbrName": "\u5185\u8499\u53e4", "latitude": "44.3408", "longitude": "117.5977", "sort": 3, "value": 8.78555618637654e+16, "sum": 3.1383836900822886e+18}], "importData": [{"name": "Inner mongolia", "chineseAbbrName": "\u5185\u8499\u53e4", "latitude": "44.3408", "longitude": "117.5977", "sort": 1, "value": 6.21703965728809e+17, "sum": 2.2588501943311213e+19}, {"name": "Heilongjiang", "chineseAbbrName": "\u9ed1\u9f99\u6c5f", "latitude": "48.5156", "longitude": "128.1445", "sort": 2, "value": 3.58662088670485e+17, "sum": 3.3706808621209426e+18}, {"name": "Liaoning", "chineseAbbrName": "\u8fbd\u5b81", "latitude": "41.0889", "longitude": "122.3438", "sort": 3, "value": 3.51527854794425e+17, "sum": 3.822277890456998e+18}]}, "Heilongjiang": {"chineseName": "\u9ed1\u9f99\u6c5f\u7701", "name": "Heilongjiang", "chineseAbbrName": "\u9ed1\u9f99\u6c5f", "latitude": "48.5156", "longitude": "128.1445", "exportSum": 3.3706808621209426e+18, "importSum": 2.775037332761346e+18, "exportData": [{"name": "Liaoning", "chineseAbbrName": "\u8fbd\u5b81", "latitude": "41.0889", "longitude": "122.3438", "sort": 1, "value": 6.35145198750659e+17, "sum": 5.550879667378063e+18}, {"name": "Shandong", "chineseAbbrName": "\u5c71\u4e1c", "latitude": "36.4307", "longitude": "118.7402", "sort": 2, "value": 3.90244421972132e+17, "sum": 8.686112463312101e+18}, {"name": "Jilin", "chineseAbbrName": "\u5409\u6797", "latitude": "43.5938", "longitude": "126.4746", "sort": 3, "value": 3.58662088670485e+17, "sum": 3.026584387402904e+18}], "importData": [{"name": "Liaoning", "chineseAbbrName": "\u8fbd\u5b81", "latitude": "41.0889", "longitude": "122.3438", "sort": 1, "value": 4.33403543587086e+17, "sum": 3.822277890456998e+18}, {"name": "Jilin", "chineseAbbrName": "\u5409\u6797", "latitude": "43.5938", "longitude": "126.4746", "sort": 2, "value": 3.57587186245214e+17, "sum": 1.7636679868382292e+18}, {"name": "Inner mongolia", "chineseAbbrName": "\u5185\u8499\u53e4", "latitude": "44.3408", "longitude": "117.5977", "sort": 3, "value": 3.57192394712691e+17, "sum": 2.2588501943311213e+19}]}, "Shanghai": {"chineseName": "\u4e0a\u6d77\u5e02", "name": "Shanghai", "chineseAbbrName": "\u4e0a\u6d77", "latitude": "31.2891", "longitude": "121.4648", "exportSum": 4.333327365642975e+18, "importSum": 7.292224002306954e+18, "exportData": [{"name": "Jiangsu", "chineseAbbrName": "\u6c5f\u82cf", "latitude": "32.915", "longitude": "120.0586", "sort": 1, "value": 6.96312550192386e+17, "sum": 1.7460346858410154e+19}, {"name": "Zhejiang", "chineseAbbrName": "\u6d59\u6c5f", "latitude": "29.0918", "longitude": "120.498", "sort": 2, "value": 6.39669694620457e+17, "sum": 1.0198952350150457e+19}, {"name": "Anhui", "chineseAbbrName": "\u5b89\u5fbd", "latitude": "32.0361", "longitude": "117.2461", "sort": 3, "value": 3.29194436246268e+17, "sum": 5.88493658585953e+18}], "importData": [{"name": "Inner mongolia", "chineseAbbrName": "\u5185\u8499\u53e4", "latitude": "44.3408", "longitude": "117.5977", "sort": 1, "value": 1.18462298407322e+18, "sum": 2.2588501943311213e+19}, {"name": "Shaanxi", "chineseAbbrName": "\u9655\u897f", "latitude": "35.6396", "longitude": "109.5996", "sort": 2, "value": 8.43681496409863e+17, "sum": 1.3259535525116463e+19}, {"name": "Shanxi", "chineseAbbrName": "\u5c71\u897f", "latitude": "37.6611", "longitude": "112.4121", "sort": 3, "value": 7.90247134360785e+17, "sum": 1.6468900240065829e+19}]}, "Jiangsu": {"chineseName": "\u6c5f\u82cf\u7701", "name": "Jiangsu", "chineseAbbrName": "\u6c5f\u82cf", "latitude": "32.915", "longitude": "120.0586", "exportSum": 8.569346972693992e+18, "importSum": 1.7460346858410154e+19, "exportData": [{"name": "Anhui", "chineseAbbrName": "\u5b89\u5fbd", "latitude": "32.0361", "longitude": "117.2461", "sort": 1, "value": 8.48265704594606e+17, "sum": 5.88493658585953e+18}, {"name": "Guangdong", "chineseAbbrName": "\u5e7f\u4e1c", "latitude": "22.8076", "longitude": "113.4668", "sort": 2, "value": 7.78152654648301e+17, "sum": 1.0022022452589679e+19}, {"name": "Zhejiang", "chineseAbbrName": "\u6d59\u6c5f", "latitude": "29.0918", "longitude": "120.498", "sort": 3, "value": 6.35436762982797e+17, "sum": 1.0198952350150457e+19}], "importData": [{"name": "Inner mongolia", "chineseAbbrName": "\u5185\u8499\u53e4", "latitude": "44.3408", "longitude": "117.5977", "sort": 1, "value": 3.15764980916412e+18, "sum": 2.2588501943311213e+19}, {"name": "Shanxi", "chineseAbbrName": "\u5c71\u897f", "latitude": "37.6611", "longitude": "112.4121", "sort": 2, "value": 2.44378218299554e+18, "sum": 1.6468900240065829e+19}, {"name": "Anhui", "chineseAbbrName": "\u5b89\u5fbd", "latitude": "32.0361", "longitude": "117.2461", "sort": 3, "value": 2.15315176597708e+18, "sum": 6.091481550277055e+18}]}, "Zhejiang": {"chineseName": "\u6d59\u6c5f\u7701", "name": "Zhejiang", "chineseAbbrName": "\u6d59\u6c5f", "latitude": "29.0918", "longitude": "120.498", "exportSum": 3.7245414890265523e+18, "importSum": 1.0198952350150457e+19, "exportData": [{"name": "Shanghai", "chineseAbbrName": "\u4e0a\u6d77", "latitude": "31.2891", "longitude": "121.4648", "sort": 1, "value": 6.16879394350872e+17, "sum": 7.292224002306954e+18}, {"name": "Jiangsu", "chineseAbbrName": "\u6c5f\u82cf", "latitude": "32.915", "longitude": "120.0586", "sort": 2, "value": 6.13798499943123e+17, "sum": 1.7460346858410154e+19}, {"name": "Guangdong", "chineseAbbrName": "\u5e7f\u4e1c", "latitude": "22.8076", "longitude": "113.4668", "sort": 3, "value": 2.84064867769949e+17, "sum": 1.0022022452589679e+19}], "importData": [{"name": "Inner mongolia", "chineseAbbrName": "\u5185\u8499\u53e4", "latitude": "44.3408", "longitude": "117.5977", "sort": 1, "value": 2.03772852787707e+18, "sum": 2.2588501943311213e+19}, {"name": "Shanxi", "chineseAbbrName": "\u5c71\u897f", "latitude": "37.6611", "longitude": "112.4121", "sort": 2, "value": 1.48718424468992e+18, "sum": 1.6468900240065829e+19}, {"name": "Shaanxi", "chineseAbbrName": "\u9655\u897f", "latitude": "35.6396", "longitude": "109.5996", "sort": 3, "value": 1.14333896656322e+18, "sum": 1.3259535525116463e+19}]}, "Anhui": {"chineseName": "\u5b89\u5fbd\u7701", "name": "Anhui", "chineseAbbrName": "\u5b89\u5fbd", "latitude": "32.0361", "longitude": "117.2461", "exportSum": 6.091481550277055e+18, "importSum": 5.88493658585953e+18, "exportData": [{"name": "Jiangsu", "chineseAbbrName": "\u6c5f\u82cf", "latitude": "32.915", "longitude": "120.0586", "sort": 1, "value": 2.15315176597708e+18, "sum": 1.7460346858410154e+19}, {"name": "Jiangxi", "chineseAbbrName": "\u6c5f\u897f", "latitude": "27.29", "longitude": "116.0156", "sort": 2, "value": 5.50082482952527e+17, "sum": 2.4881204007047357e+18}, {"name": "Zhejiang", "chineseAbbrName": "\u6d59\u6c5f", "latitude": "29.0918", "longitude": "120.498", "sort": 3, "value": 5.39264984154108e+17, "sum": 1.0198952350150457e+19}], "importData": [{"name": "Inner mongolia", "chineseAbbrName": "\u5185\u8499\u53e4", "latitude": "44.3408", "longitude": "117.5977", "sort": 1, "value": 1.01016721137825e+18, "sum": 2.2588501943311213e+19}, {"name": "Jiangsu", "chineseAbbrName": "\u6c5f\u82cf", "latitude": "32.915", "longitude": "120.0586", "sort": 2, "value": 8.48265704594606e+17, "sum": 8.569346972693992e+18}, {"name": "Shanxi", "chineseAbbrName": "\u5c71\u897f", "latitude": "37.6611", "longitude": "112.4121", "sort": 3, "value": 7.01089368861346e+17, "sum": 1.6468900240065829e+19}]}, "Fujian": {"chineseName": "\u798f\u5efa\u7701", "name": "Fujian", "chineseAbbrName": "\u798f\u5efa", "latitude": "25.9277", "longitude": "118.3008", "exportSum": 6.117238549333155e+17, "importSum": 1.2835528965680333e+18, "exportData": [{"name": "Guangdong", "chineseAbbrName": "\u5e7f\u4e1c", "latitude": "22.8076", "longitude": "113.4668", "sort": 1, "value": 8.62981405851878e+16, "sum": 1.0022022452589679e+19}, {"name": "Zhejiang", "chineseAbbrName": "\u6d59\u6c5f", "latitude": "29.0918", "longitude": "120.498", "sort": 2, "value": 6.31983926637191e+16, "sum": 1.0198952350150457e+19}, {"name": "Jiangsu", "chineseAbbrName": "\u6c5f\u82cf", "latitude": "32.915", "longitude": "120.0586", "sort": 3, "value": 5.62090243463625e+16, "sum": 1.7460346858410154e+19}], "importData": [{"name": "Inner mongolia", "chineseAbbrName": "\u5185\u8499\u53e4", "latitude": "44.3408", "longitude": "117.5977", "sort": 1, "value": 1.97274328968788e+17, "sum": 2.2588501943311213e+19}, {"name": "Shaanxi", "chineseAbbrName": "\u9655\u897f", "latitude": "35.6396", "longitude": "109.5996", "sort": 2, "value": 1.35274281529498e+17, "sum": 1.3259535525116463e+19}, {"name": "Shanxi", "chineseAbbrName": "\u5c71\u897f", "latitude": "37.6611", "longitude": "112.4121", "sort": 3, "value": 1.0545670759805e+17, "sum": 1.6468900240065829e+19}]}, "Jiangxi": {"chineseName": "\u6c5f\u897f\u7701", "name": "Jiangxi", "chineseAbbrName": "\u6c5f\u897f", "latitude": "27.29", "longitude": "116.0156", "exportSum": 1.1346023415364726e+18, "importSum": 2.4881204007047357e+18, "exportData": [{"name": "Jiangsu", "chineseAbbrName": "\u6c5f\u82cf", "latitude": "32.915", "longitude": "120.0586", "sort": 1, "value": 2.08489358922479e+17, "sum": 1.7460346858410154e+19}, {"name": "Zhejiang", "chineseAbbrName": "\u6d59\u6c5f", "latitude": "29.0918", "longitude": "120.498", "sort": 2, "value": 1.4002132153969e+17, "sum": 1.0198952350150457e+19}, {"name": "Guangdong", "chineseAbbrName": "\u5e7f\u4e1c", "latitude": "22.8076", "longitude": "113.4668", "sort": 3, "value": 1.24208946932918e+17, "sum": 1.0022022452589679e+19}], "importData": [{"name": "Anhui", "chineseAbbrName": "\u5b89\u5fbd", "latitude": "32.0361", "longitude": "117.2461", "sort": 1, "value": 5.50082482952527e+17, "sum": 6.091481550277055e+18}, {"name": "Inner mongolia", "chineseAbbrName": "\u5185\u8499\u53e4", "latitude": "44.3408", "longitude": "117.5977", "sort": 2, "value": 3.64948614306637e+17, "sum": 2.2588501943311213e+19}, {"name": "Shaanxi", "chineseAbbrName": "\u9655\u897f", "latitude": "35.6396", "longitude": "109.5996", "sort": 3, "value": 3.06791662712333e+17, "sum": 1.3259535525116463e+19}]}, "Shandong": {"chineseName": "\u5c71\u4e1c\u7701", "name": "Shandong", "chineseAbbrName": "\u5c71\u4e1c", "latitude": "36.4307", "longitude": "118.7402", "exportSum": 2.951363514989708e+18, "importSum": 8.686112463312101e+18, "exportData": [{"name": "Jiangsu", "chineseAbbrName": "\u6c5f\u82cf", "latitude": "32.915", "longitude": "120.0586", "sort": 1, "value": 3.01111529673884e+17, "sum": 1.7460346858410154e+19}, {"name": "Henan", "chineseAbbrName": "\u6cb3\u5357", "latitude": "33.8818", "longitude": "113.4668", "sort": 2, "value": 2.8073289260937e+17, "sum": 6.90722297613652e+18}, {"name": "Beijing", "chineseAbbrName": "\u5317\u4eac", "latitude": "40.2539", "longitude": "116.4551", "sort": 3, "value": 2.41390867557185e+17, "sum": 6.996778421428336e+18}], "importData": [{"name": "Inner mongolia", "chineseAbbrName": "\u5185\u8499\u53e4", "latitude": "44.3408", "longitude": "117.5977", "sort": 1, "value": 2.02379120620035e+18, "sum": 2.2588501943311213e+19}, {"name": "Shanxi", "chineseAbbrName": "\u5c71\u897f", "latitude": "37.6611", "longitude": "112.4121", "sort": 2, "value": 1.54411369331609e+18, "sum": 1.6468900240065829e+19}, {"name": "Shaanxi", "chineseAbbrName": "\u9655\u897f", "latitude": "35.6396", "longitude": "109.5996", "sort": 3, "value": 1.18940236016664e+18, "sum": 1.3259535525116463e+19}]}, "Henan": {"chineseName": "\u6cb3\u5357\u7701", "name": "Henan", "chineseAbbrName": "\u6cb3\u5357", "latitude": "33.8818", "longitude": "113.4668", "exportSum": 4.591853524945483e+18, "importSum": 6.90722297613652e+18, "exportData": [{"name": "Jiangsu", "chineseAbbrName": "\u6c5f\u82cf", "latitude": "32.915", "longitude": "120.0586", "sort": 1, "value": 8.56082924643411e+17, "sum": 1.7460346858410154e+19}, {"name": "Zhejiang", "chineseAbbrName": "\u6d59\u6c5f", "latitude": "29.0918", "longitude": "120.498", "sort": 2, "value": 3.26337711252378e+17, "sum": 1.0198952350150457e+19}, {"name": "Shaanxi", "chineseAbbrName": "\u9655\u897f", "latitude": "35.6396", "longitude": "109.5996", "sort": 3, "value": 3.10352193803571e+17, "sum": 3.5602981295706076e+18}], "importData": [{"name": "Shanxi", "chineseAbbrName": "\u5c71\u897f", "latitude": "37.6611", "longitude": "112.4121", "sort": 1, "value": 1.23295498390885e+18, "sum": 1.6468900240065829e+19}, {"name": "Inner mongolia", "chineseAbbrName": "\u5185\u8499\u53e4", "latitude": "44.3408", "longitude": "117.5977", "sort": 2, "value": 9.19592075842998e+17, "sum": 2.2588501943311213e+19}, {"name": "Shaanxi", "chineseAbbrName": "\u9655\u897f", "latitude": "35.6396", "longitude": "109.5996", "sort": 3, "value": 7.90556824265401e+17, "sum": 1.3259535525116463e+19}]}, "Hubei": {"chineseName": "\u6e56\u5317\u7701", "name": "Hubei", "chineseAbbrName": "\u6e56\u5317", "latitude": "31.1572", "longitude": "112.2363", "exportSum": 3.687714702988635e+17, "importSum": 2.7864734509515745e+18, "exportData": [{"name": "Jiangsu", "chineseAbbrName": "\u6c5f\u82cf", "latitude": "32.915", "longitude": "120.0586", "sort": 1, "value": 4.97968838135047e+16, "sum": 1.7460346858410154e+19}, {"name": "Anhui", "chineseAbbrName": "\u5b89\u5fbd", "latitude": "32.0361", "longitude": "117.2461", "sort": 2, "value": 3.14169281276237e+16, "sum": 5.88493658585953e+18}, {"name": "Henan", "chineseAbbrName": "\u6cb3\u5357", "latitude": "33.8818", "longitude": "113.4668", "sort": 3, "value": 3.11238238489018e+16, "sum": 6.90722297613652e+18}], "importData": [{"name": "Inner mongolia", "chineseAbbrName": "\u5185\u8499\u53e4", "latitude": "44.3408", "longitude": "117.5977", "sort": 1, "value": 6.42351076652045e+17, "sum": 2.2588501943311213e+19}, {"name": "Shaanxi", "chineseAbbrName": "\u9655\u897f", "latitude": "35.6396", "longitude": "109.5996", "sort": 2, "value": 5.14323837365153e+17, "sum": 1.3259535525116463e+19}, {"name": "Shanxi", "chineseAbbrName": "\u5c71\u897f", "latitude": "37.6611", "longitude": "112.4121", "sort": 3, "value": 4.42040690183628e+17, "sum": 1.6468900240065829e+19}]}, "Hunan": {"chineseName": "\u6e56\u5357\u7701", "name": "Hunan", "chineseAbbrName": "\u6e56\u5357", "latitude": "27.3779", "longitude": "111.5332", "exportSum": 2.133880424994303e+18, "importSum": 4.237239773059538e+18, "exportData": [{"name": "Jiangsu", "chineseAbbrName": "\u6c5f\u82cf", "latitude": "32.915", "longitude": "120.0586", "sort": 1, "value": 3.00880034506799e+17, "sum": 1.7460346858410154e+19}, {"name": "Guangdong", "chineseAbbrName": "\u5e7f\u4e1c", "latitude": "22.8076", "longitude": "113.4668", "sort": 2, "value": 2.73176700311406e+17, "sum": 1.0022022452589679e+19}, {"name": "Henan", "chineseAbbrName": "\u6cb3\u5357", "latitude": "33.8818", "longitude": "113.4668", "sort": 3, "value": 1.61938257871533e+17, "sum": 6.90722297613652e+18}], "importData": [{"name": "Inner mongolia", "chineseAbbrName": "\u5185\u8499\u53e4", "latitude": "44.3408", "longitude": "117.5977", "sort": 1, "value": 5.73711416740681e+17, "sum": 2.2588501943311213e+19}, {"name": "Shaanxi", "chineseAbbrName": "\u9655\u897f", "latitude": "35.6396", "longitude": "109.5996", "sort": 2, "value": 5.58329420503946e+17, "sum": 1.3259535525116463e+19}, {"name": "Jiangsu", "chineseAbbrName": "\u6c5f\u82cf", "latitude": "32.915", "longitude": "120.0586", "sort": 3, "value": 5.06491159522405e+17, "sum": 8.569346972693992e+18}]}, "Guangdong": {"chineseName": "\u5e7f\u4e1c\u7701", "name": "Guangdong", "chineseAbbrName": "\u5e7f\u4e1c", "latitude": "22.8076", "longitude": "113.4668", "exportSum": 3.573602681053163e+18, "importSum": 1.0022022452589679e+19, "exportData": [{"name": "Jiangsu", "chineseAbbrName": "\u6c5f\u82cf", "latitude": "32.915", "longitude": "120.0586", "sort": 1, "value": 3.33357436823257e+17, "sum": 1.7460346858410154e+19}, {"name": "Hunan", "chineseAbbrName": "\u6e56\u5357", "latitude": "27.3779", "longitude": "111.5332", "sort": 2, "value": 3.10524218201792e+17, "sum": 4.237239773059538e+18}, {"name": "Guangxi", "chineseAbbrName": "\u5e7f\u897f", "latitude": "23.6426", "longitude": "108.2813", "sort": 3, "value": 2.66442427318825e+17, "sum": 2.370123514525358e+18}], "importData": [{"name": "Inner mongolia", "chineseAbbrName": "\u5185\u8499\u53e4", "latitude": "44.3408", "longitude": "117.5977", "sort": 1, "value": 1.49670944461448e+18, "sum": 2.2588501943311213e+19}, {"name": "Shaanxi", "chineseAbbrName": "\u9655\u897f", "latitude": "35.6396", "longitude": "109.5996", "sort": 2, "value": 1.24561010121566e+18, "sum": 1.3259535525116463e+19}, {"name": "Shanxi", "chineseAbbrName": "\u5c71\u897f", "latitude": "37.6611", "longitude": "112.4121", "sort": 3, "value": 1.11643043284804e+18, "sum": 1.6468900240065829e+19}]}, "Guangxi": {"chineseName": "\u5e7f\u897f\u58ee\u65cf\u81ea\u6cbb\u533a", "name": "Guangxi", "chineseAbbrName": "\u5e7f\u897f", "latitude": "23.6426", "longitude": "108.2813", "exportSum": 7.085717386510079e+17, "importSum": 2.370123514525358e+18, "exportData": [{"name": "Guangdong", "chineseAbbrName": "\u5e7f\u4e1c", "latitude": "22.8076", "longitude": "113.4668", "sort": 1, "value": 1.40961213763625e+17, "sum": 1.0022022452589679e+19}, {"name": "Jiangsu", "chineseAbbrName": "\u6c5f\u82cf", "latitude": "32.915", "longitude": "120.0586", "sort": 2, "value": 6.80004130738577e+16, "sum": 1.7460346858410154e+19}, {"name": "Chongqing", "chineseAbbrName": "\u91cd\u5e86", "latitude": "30.1904", "longitude": "107.7539", "sort": 3, "value": 5.12634891366412e+16, "sum": 2.637747272309209e+18}], "importData": [{"name": "Inner mongolia", "chineseAbbrName": "\u5185\u8499\u53e4", "latitude": "44.3408", "longitude": "117.5977", "sort": 1, "value": 2.6902948660723e+17, "sum": 2.2588501943311213e+19}, {"name": "Guangdong", "chineseAbbrName": "\u5e7f\u4e1c", "latitude": "22.8076", "longitude": "113.4668", "sort": 2, "value": 2.66442427318825e+17, "sum": 3.573602681053163e+18}, {"name": "Jiangsu", "chineseAbbrName": "\u6c5f\u82cf", "latitude": "32.915", "longitude": "120.0586", "sort": 3, "value": 2.44947421571652e+17, "sum": 8.569346972693992e+18}]}, "Hainan": {"chineseName": "\u6d77\u5357\u7701", "name": "Hainan", "chineseAbbrName": "\u6d77\u5357", "latitude": "19.2041", "longitude": "109.9512", "exportSum": 4.751392260825617e+17, "importSum": 6.033801156035085e+17, "exportData": [{"name": "Guangdong", "chineseAbbrName": "\u5e7f\u4e1c", "latitude": "22.8076", "longitude": "113.4668", "sort": 1, "value": 1.56028120579736e+17, "sum": 1.0022022452589679e+19}, {"name": "Guangxi", "chineseAbbrName": "\u5e7f\u897f", "latitude": "23.6426", "longitude": "108.2813", "sort": 2, "value": 4.19549145547458e+16, "sum": 2.370123514525358e+18}, {"name": "Shanghai", "chineseAbbrName": "\u4e0a\u6d77", "latitude": "31.2891", "longitude": "121.4648", "sort": 3, "value": 2.84864947746499e+16, "sum": 7.292224002306954e+18}], "importData": [{"name": "Guangdong", "chineseAbbrName": "\u5e7f\u4e1c", "latitude": "22.8076", "longitude": "113.4668", "sort": 1, "value": 8.72407294331641e+16, "sum": 3.573602681053163e+18}, {"name": "Jiangsu", "chineseAbbrName": "\u6c5f\u82cf", "latitude": "32.915", "longitude": "120.0586", "sort": 2, "value": 6.39111557267956e+16, "sum": 8.569346972693992e+18}, {"name": "Guangxi", "chineseAbbrName": "\u5e7f\u897f", "latitude": "23.6426", "longitude": "108.2813", "sort": 3, "value": 4.34122309636703e+16, "sum": 7.085717386510079e+17}]}, "Chongqing": {"chineseName": "\u91cd\u5e86\u5e02", "name": "Chongqing", "chineseAbbrName": "\u91cd\u5e86", "latitude": "30.1904", "longitude": "107.7539", "exportSum": 1.85439762329282e+18, "importSum": 2.637747272309209e+18, "exportData": [{"name": "Guangdong", "chineseAbbrName": "\u5e7f\u4e1c", "latitude": "22.8076", "longitude": "113.4668", "sort": 1, "value": 2.46097679355702e+17, "sum": 1.0022022452589679e+19}, {"name": "Shaanxi", "chineseAbbrName": "\u9655\u897f", "latitude": "35.6396", "longitude": "109.5996", "sort": 2, "value": 1.47717140052894e+17, "sum": 3.5602981295706076e+18}, {"name": "Yunnan", "chineseAbbrName": "\u4e91\u5357", "latitude": "25.1807", "longitude": "101.8652", "sort": 3, "value": 1.38087071974943e+17, "sum": 1.8835560348514056e+18}], "importData": [{"name": "Shaanxi", "chineseAbbrName": "\u9655\u897f", "latitude": "35.6396", "longitude": "109.5996", "sort": 1, "value": 2.68526372628872e+17, "sum": 1.3259535525116463e+19}, {"name": "Guizhou", "chineseAbbrName": "\u8d35\u5dde", "latitude": "26.9385", "longitude": "106.6113", "sort": 2, "value": 2.39531584017905e+17, "sum": 3.143724243145794e+18}, {"name": "Guangdong", "chineseAbbrName": "\u5e7f\u4e1c", "latitude": "22.8076", "longitude": "113.4668", "sort": 3, "value": 1.70385302836339e+17, "sum": 3.573602681053163e+18}]}, "Sichuan": {"chineseName": "\u56db\u5ddd\u7701", "name": "Sichuan", "chineseAbbrName": "\u56db\u5ddd", "latitude": "30.1904", "longitude": "102.9199", "exportSum": 9.69215153334991e+17, "importSum": 1.678070384975317e+18, "exportData": [{"name": "Chongqing", "chineseAbbrName": "\u91cd\u5e86", "latitude": "30.1904", "longitude": "107.7539", "sort": 1, "value": 1.34425376969771e+17, "sum": 2.637747272309209e+18}, {"name": "Guangdong", "chineseAbbrName": "\u5e7f\u4e1c", "latitude": "22.8076", "longitude": "113.4668", "sort": 2, "value": 1.11683231472345e+17, "sum": 1.0022022452589679e+19}, {"name": "Jiangsu", "chineseAbbrName": "\u6c5f\u82cf", "latitude": "32.915", "longitude": "120.0586", "sort": 3, "value": 8.02777133738624e+16, "sum": 1.7460346858410154e+19}], "importData": [{"name": "Shaanxi", "chineseAbbrName": "\u9655\u897f", "latitude": "35.6396", "longitude": "109.5996", "sort": 1, "value": 2.44557607411365e+17, "sum": 1.3259535525116463e+19}, {"name": "Guangdong", "chineseAbbrName": "\u5e7f\u4e1c", "latitude": "22.8076", "longitude": "113.4668", "sort": 2, "value": 1.19902003938246e+17, "sum": 3.573602681053163e+18}, {"name": "Jiangsu", "chineseAbbrName": "\u6c5f\u82cf", "latitude": "32.915", "longitude": "120.0586", "sort": 3, "value": 1.16013410674459e+17, "sum": 8.569346972693992e+18}]}, "Guizhou": {"chineseName": "\u8d35\u5dde\u7701", "name": "Guizhou", "chineseAbbrName": "\u8d35\u5dde", "latitude": "26.9385", "longitude": "106.6113", "exportSum": 3.143724243145794e+18, "importSum": 1.0854997333577e+18, "exportData": [{"name": "Guangdong", "chineseAbbrName": "\u5e7f\u4e1c", "latitude": "22.8076", "longitude": "113.4668", "sort": 1, "value": 9.57047789457749e+17, "sum": 1.0022022452589679e+19}, {"name": "Jiangsu", "chineseAbbrName": "\u6c5f\u82cf", "latitude": "32.915", "longitude": "120.0586", "sort": 2, "value": 2.64162424286998e+17, "sum": 1.7460346858410154e+19}, {"name": "Zhejiang", "chineseAbbrName": "\u6d59\u6c5f", "latitude": "29.0918", "longitude": "120.498", "sort": 3, "value": 2.49425139978499e+17, "sum": 1.0198952350150457e+19}], "importData": [{"name": "Guangdong", "chineseAbbrName": "\u5e7f\u4e1c", "latitude": "22.8076", "longitude": "113.4668", "sort": 1, "value": 1.25727803828781e+17, "sum": 3.573602681053163e+18}, {"name": "Jiangsu", "chineseAbbrName": "\u6c5f\u82cf", "latitude": "32.915", "longitude": "120.0586", "sort": 2, "value": 1.12999387087987e+17, "sum": 8.569346972693992e+18}, {"name": "Shaanxi", "chineseAbbrName": "\u9655\u897f", "latitude": "35.6396", "longitude": "109.5996", "sort": 3, "value": 8.09038686356837e+16, "sum": 1.3259535525116463e+19}]}, "Yunnan": {"chineseName": "\u4e91\u5357\u7701", "name": "Yunnan", "chineseAbbrName": "\u4e91\u5357", "latitude": "25.1807", "longitude": "101.8652", "exportSum": 1.5726127807435123e+18, "importSum": 1.8835560348514056e+18, "exportData": [{"name": "Guangdong", "chineseAbbrName": "\u5e7f\u4e1c", "latitude": "22.8076", "longitude": "113.4668", "sort": 1, "value": 2.78043503022088e+17, "sum": 1.0022022452589679e+19}, {"name": "Jiangsu", "chineseAbbrName": "\u6c5f\u82cf", "latitude": "32.915", "longitude": "120.0586", "sort": 2, "value": 1.67416314481625e+17, "sum": 1.7460346858410154e+19}, {"name": "Chongqing", "chineseAbbrName": "\u91cd\u5e86", "latitude": "30.1904", "longitude": "107.7539", "sort": 3, "value": 1.3213053431872e+17, "sum": 2.637747272309209e+18}], "importData": [{"name": "Jiangsu", "chineseAbbrName": "\u6c5f\u82cf", "latitude": "32.915", "longitude": "120.0586", "sort": 1, "value": 2.54954649462012e+17, "sum": 8.569346972693992e+18}, {"name": "Guangdong", "chineseAbbrName": "\u5e7f\u4e1c", "latitude": "22.8076", "longitude": "113.4668", "sort": 2, "value": 1.99165928536056e+17, "sum": 3.573602681053163e+18}, {"name": "Chongqing", "chineseAbbrName": "\u91cd\u5e86", "latitude": "30.1904", "longitude": "107.7539", "sort": 3, "value": 1.38087071974943e+17, "sum": 1.85439762329282e+18}]}, "Tibet": {"chineseName": "\u897f\u85cf", "name": "Tibet", "chineseAbbrName": "\u897f\u85cf", "latitude": "31.68", "longitude": "88.76", "exportSum": 0.0, "importSum": 0.0, "exportData": [{"name": "Beijing", "chineseAbbrName": "\u5317\u4eac", "latitude": "40.2539", "longitude": "116.4551", "sort": 1, "value": 0.0, "sum": 6.996778421428336e+18}, {"name": "Qinghai", "chineseAbbrName": "\u9752\u6d77", "latitude": "35.4199", "longitude": "96.2402", "sort": 2, "value": 0.0, "sum": 2.7858456294804576e+17}, {"name": "Gansu", "chineseAbbrName": "\u7518\u8083", "latitude": "40.166", "longitude": "95.7129", "sort": 3, "value": 0.0, "sum": 1.8167523275431603e+18}], "importData": [{"name": "Beijing", "chineseAbbrName": "\u5317\u4eac", "latitude": "40.2539", "longitude": "116.4551", "sort": 1, "value": 0.0, "sum": 6.314917603530778e+18}, {"name": "Qinghai", "chineseAbbrName": "\u9752\u6d77", "latitude": "35.4199", "longitude": "96.2402", "sort": 2, "value": 0.0, "sum": 3.1730051094444096e+17}, {"name": "Gansu", "chineseAbbrName": "\u7518\u8083", "latitude": "40.166", "longitude": "95.7129", "sort": 3, "value": 0.0, "sum": 1.521773843546017e+18}]}, "Shaanxi": {"chineseName": "\u9655\u897f\u7701", "name": "Shaanxi", "chineseAbbrName": "\u9655\u897f", "latitude": "35.6396", "longitude": "109.5996", "exportSum": 1.3259535525116463e+19, "importSum": 3.5602981295706076e+18, "exportData": [{"name": "Jiangsu", "chineseAbbrName": "\u6c5f\u82cf", "latitude": "32.915", "longitude": "120.0586", "sort": 1, "value": 2.14889128217889e+18, "sum": 1.7460346858410154e+19}, {"name": "Guangdong", "chineseAbbrName": "\u5e7f\u4e1c", "latitude": "22.8076", "longitude": "113.4668", "sort": 2, "value": 1.24561010121566e+18, "sum": 1.0022022452589679e+19}, {"name": "Shandong", "chineseAbbrName": "\u5c71\u4e1c", "latitude": "36.4307", "longitude": "118.7402", "sort": 3, "value": 1.18940236016664e+18, "sum": 8.686112463312101e+18}], "importData": [{"name": "Inner mongolia", "chineseAbbrName": "\u5185\u8499\u53e4", "latitude": "44.3408", "longitude": "117.5977", "sort": 1, "value": 4.17002488076208e+17, "sum": 2.2588501943311213e+19}, {"name": "Shanxi", "chineseAbbrName": "\u5c71\u897f", "latitude": "37.6611", "longitude": "112.4121", "sort": 2, "value": 3.41917085493974e+17, "sum": 1.6468900240065829e+19}, {"name": "Jiangsu", "chineseAbbrName": "\u6c5f\u82cf", "latitude": "32.915", "longitude": "120.0586", "sort": 3, "value": 3.18968497108504e+17, "sum": 8.569346972693992e+18}]}, "Gansu": {"chineseName": "\u7518\u8083\u7701", "name": "Gansu", "chineseAbbrName": "\u7518\u8083", "latitude": "40.166", "longitude": "95.7129", "exportSum": 1.521773843546017e+18, "importSum": 1.8167523275431603e+18, "exportData": [{"name": "Shaanxi", "chineseAbbrName": "\u9655\u897f", "latitude": "35.6396", "longitude": "109.5996", "sort": 1, "value": 1.42628536994081e+17, "sum": 3.5602981295706076e+18}, {"name": "Jiangsu", "chineseAbbrName": "\u6c5f\u82cf", "latitude": "32.915", "longitude": "120.0586", "sort": 2, "value": 1.36550032915895e+17, "sum": 1.7460346858410154e+19}, {"name": "Chongqing", "chineseAbbrName": "\u91cd\u5e86", "latitude": "30.1904", "longitude": "107.7539", "sort": 3, "value": 1.13792276487359e+17, "sum": 2.637747272309209e+18}], "importData": [{"name": "Inner mongolia", "chineseAbbrName": "\u5185\u8499\u53e4", "latitude": "44.3408", "longitude": "117.5977", "sort": 1, "value": 3.10651534709171e+17, "sum": 2.2588501943311213e+19}, {"name": "Shaanxi", "chineseAbbrName": "\u9655\u897f", "latitude": "35.6396", "longitude": "109.5996", "sort": 2, "value": 2.81747836041621e+17, "sum": 1.3259535525116463e+19}, {"name": "Ningxia", "chineseAbbrName": "\u5b81\u590f", "latitude": "37.3096", "longitude": "105.9961", "sort": 3, "value": 2.39161807374247e+17, "sum": 3.3469211526397926e+18}]}, "Qinghai": {"chineseName": "\u9752\u6d77\u7701", "name": "Qinghai", "chineseAbbrName": "\u9752\u6d77", "latitude": "35.4199", "longitude": "96.2402", "exportSum": 3.1730051094444096e+17, "importSum": 2.7858456294804576e+17, "exportData": [{"name": "Zhejiang", "chineseAbbrName": "\u6d59\u6c5f", "latitude": "29.0918", "longitude": "120.498", "sort": 1, "value": 3.68520646587025e+16, "sum": 1.0198952350150457e+19}, {"name": "Gansu", "chineseAbbrName": "\u7518\u8083", "latitude": "40.166", "longitude": "95.7129", "sort": 2, "value": 2.90629231448673e+16, "sum": 1.8167523275431603e+18}, {"name": "Chongqing", "chineseAbbrName": "\u91cd\u5e86", "latitude": "30.1904", "longitude": "107.7539", "sort": 3, "value": 2.35874251683889e+16, "sum": 2.637747272309209e+18}], "importData": [{"name": "Gansu", "chineseAbbrName": "\u7518\u8083", "latitude": "40.166", "longitude": "95.7129", "sort": 1, "value": 3.70400004721155e+16, "sum": 1.521773843546017e+18}, {"name": "Jiangsu", "chineseAbbrName": "\u6c5f\u82cf", "latitude": "32.915", "longitude": "120.0586", "sort": 2, "value": 2.99857661105159e+16, "sum": 8.569346972693992e+18}, {"name": "Shaanxi", "chineseAbbrName": "\u9655\u897f", "latitude": "35.6396", "longitude": "109.5996", "sort": 3, "value": 2.28037462987091e+16, "sum": 1.3259535525116463e+19}]}, "Ningxia": {"chineseName": "\u5b81\u590f\u56de\u65cf\u81ea\u6cbb\u533a", "name": "Ningxia", "chineseAbbrName": "\u5b81\u590f", "latitude": "37.3096", "longitude": "105.9961", "exportSum": 3.3469211526397926e+18, "importSum": 2.402728464517748e+18, "exportData": [{"name": "Jiangsu", "chineseAbbrName": "\u6c5f\u82cf", "latitude": "32.915", "longitude": "120.0586", "sort": 1, "value": 4.32776154175478e+17, "sum": 1.7460346858410154e+19}, {"name": "Guangdong", "chineseAbbrName": "\u5e7f\u4e1c", "latitude": "22.8076", "longitude": "113.4668", "sort": 2, "value": 3.26481157841539e+17, "sum": 1.0022022452589679e+19}, {"name": "Zhejiang", "chineseAbbrName": "\u6d59\u6c5f", "latitude": "29.0918", "longitude": "120.498", "sort": 3, "value": 2.9314170482678e+17, "sum": 1.0198952350150457e+19}], "importData": [{"name": "Inner mongolia", "chineseAbbrName": "\u5185\u8499\u53e4", "latitude": "44.3408", "longitude": "117.5977", "sort": 1, "value": 9.48148894697609e+17, "sum": 2.2588501943311213e+19}, {"name": "Shaanxi", "chineseAbbrName": "\u9655\u897f", "latitude": "35.6396", "longitude": "109.5996", "sort": 2, "value": 4.94958064137394e+17, "sum": 1.3259535525116463e+19}, {"name": "Shanxi", "chineseAbbrName": "\u5c71\u897f", "latitude": "37.6611", "longitude": "112.4121", "sort": 3, "value": 4.74476503312078e+17, "sum": 1.6468900240065829e+19}]}, "Xinjiang": {"chineseName": "\u65b0\u7586\u7ef4\u543e\u5c14", "name": "Xinjiang", "chineseAbbrName": "\u65b0\u7586", "latitude": "41.748", "longitude": "84.9023", "exportSum": 3.4743758594534313e+18, "importSum": 1.2001599429694198e+18, "exportData": [{"name": "Shandong", "chineseAbbrName": "\u5c71\u4e1c", "latitude": "36.4307", "longitude": "118.7402", "sort": 1, "value": 4.83066145807498e+17, "sum": 8.686112463312101e+18}, {"name": "Jiangsu", "chineseAbbrName": "\u6c5f\u82cf", "latitude": "32.915", "longitude": "120.0586", "sort": 2, "value": 4.66177163227772e+17, "sum": 1.7460346858410154e+19}, {"name": "Zhejiang", "chineseAbbrName": "\u6d59\u6c5f", "latitude": "29.0918", "longitude": "120.498", "sort": 3, "value": 3.12553590237632e+17, "sum": 1.0198952350150457e+19}], "importData": [{"name": "Jiangsu", "chineseAbbrName": "\u6c5f\u82cf", "latitude": "32.915", "longitude": "120.0586", "sort": 1, "value": 1.85813709868744e+17, "sum": 8.569346972693992e+18}, {"name": "Inner mongolia", "chineseAbbrName": "\u5185\u8499\u53e4", "latitude": "44.3408", "longitude": "117.5977", "sort": 2, "value": 7.93368708140672e+16, "sum": 2.2588501943311213e+19}, {"name": "Hebei", "chineseAbbrName": "\u6cb3\u5317", "latitude": "37.9688", "longitude": "115.4004", "sort": 3, "value": 7.87643967483079e+16, "sum": 5.939963162268555e+18}]}}]